[{
		"title": "The Ring Farmhouse",
		"Latitude": "53.0810622",
		"Longitude": "-7.8852648"
	},

	{
		"title": "Killeena House Self Catering Apartments",
		"Latitude": "51.65253688",
		"Longitude": "-9.2745208"
	},

	{
		"title": "Crypto Cafe Dublin",
		"Latitude": "53.33980691",
		"Longitude": "-6.2655987"
	},

	{
		"title": "Bitcoin ATM",
		"Latitude": "53.3472851",
		"Longitude": "-6.2695696"
	},

	{
		"title": "Busyfeet & Coco Cafe",
		"Latitude": "53.3411255",
		"Longitude": "-6.2653409"
	},

	{
		"title": "Sinéad Nic Clámha Pilates",
		"Latitude": "53.377453",
		"Longitude": "-6.3807817"
	},

	{
		"title": "Pheasant Inn",
		"Latitude": "53.76494896",
		"Longitude": "-6.10290527"
	},

	{
		"title": "Mary's Laundry & Dry Cleaning",
		"Latitude": "53.77874646",
		"Longitude": "-7.79342651"
	}

]